[{"location": {"lat": 51.3751766, "lon": -0.0836591}, "name": "The Cricketers"}, {"location": {"lat": 51.3793468, "lon": -0.0807355}, "name": "The Alma Tavern"}, {"location": {"lat": 51.3782981, "lon": -0.087598}, "name": "The Oval Tavern"}, {"location": {"lat": 51.3794773, "lon": -0.085901}, "name": "The Builders Arms"}, {"location": {"lat": 51.37894880004133, "lon": -0.08875261112081449}, "name": "The Orchard"}]