[{"location": {"lat": 51.3689042, "lon": -0.1619811}, "name": "The Lord Palmerston"}, {"location": {"lat": 51.367124, "lon": -0.1641978}, "name": "The Sun"}, {"location": {"lat": 51.3650377, "lon": -0.1623319}, "name": "Coach & Horses"}, {"location": {"lat": 51.3650042, "lon": -0.1625787}, "name": "The Woodman"}, {"location": {"lat": 51.3693298, "lon": -0.1658625}, "name": "The Railway Tavern"}, {"location": {"lat": 51.3663292, "lon": -0.1673205}, "name": "The Racehorse"}, {"location": {"lat": 51.36703501114316, "lon": -0.16711888890773124}, "name": "The Hope"}, {"location": {"lat": 51.36490006004965, "lon": -0.1644484999452642}, "name": "The Greyhound"}, {"location": {"lat": 51.36263430913148, "lon": -0.1685764060830997}, "name": "The Windsor Castle"}]