[{"location": {"lat": 51.465564, "lon": -0.299238}, "name": "The Shaftesbury Arms"}, {"location": {"lat": 51.46152882731013, "lon": -0.2961389908947746}, "name": "The White Horse"}, {"location": {"lat": 51.461705880036774, "lon": -0.2968435800170475}, "name": "The Red Cow"}, {"location": {"lat": 51.46627370004146, "lon": -0.29189401433076273}, "name": "The Crown"}, {"location": {"lat": 51.4630757444683, "lon": -0.29149290002385353}, "name": "The Mitre"}]