[{"location": {"lat": 51.4772459, "lon": -0.0586344}, "name": "Asylum Travern"}, {"location": {"lat": 51.4783235, "lon": -0.0539226}, "name": "The Windsor"}, {"location": {"lat": 51.47751341677456, "lon": -0.05585554997546814}, "name": "Carlton Tavern"}, {"location": {"lat": 51.473756280013234, "lon": -0.05863758004247486}, "name": "Beer Rebellion"}, {"location": {"lat": 51.47090135721358, "lon": -0.050114957102789244}, "name": "The Telegraph at The Earl of Derby"}]