[{"location": {"lat": 51.4917587, "lon": -0.2622862}, "name": "Betty"}, {"location": {"lat": 51.4962711, "lon": -0.2641399}, "name": "The Duke of Sussex"}, {"location": {"lat": 51.497998, "lon": -0.2652298}, "name": "The Swan"}, {"location": {"lat": 51.4992672, "lon": -0.2644126}, "name": "The Stag"}, {"location": {"lat": 51.49286614288906, "lon": -0.26663394287625114}, "name": "The Old Pack Horse"}, {"location": {"lat": 51.492738040026076, "lon": -0.2637375000708973}, "name": "The Crown and Anchor"}, {"location": {"lat": 51.49204760003606, "lon": -0.26240935990412484}, "name": "The Lamb Brewery"}, {"location": {"lat": 51.49269276668765, "lon": -0.26375990000844707}, "name": "The Crown & Anchor"}, {"location": {"lat": 51.492942162510104, "lon": -0.26744726252087087}, "name": "Connolly's Bar"}]