[{"location": {"lat": 51.4986377, "lon": -0.139521}, "name": "The Colonies"}, {"location": {"lat": 51.4968564, "lon": -0.1322401}, "name": "The Speaker"}, {"location": {"lat": 51.491063, "lon": -0.137324}, "name": "Cask"}, {"location": {"lat": 51.4982084, "lon": -0.132442}, "name": "Munich Cricket Club"}, {"location": {"lat": 51.49421094002979, "lon": -0.13247796006123802}, "name": "The Royal Oak"}, {"location": {"lat": 51.49746313339635, "lon": -0.13410795560084476}, "name": "Grafton Arms"}, {"location": {"lat": 51.493065920032315, "lon": -0.13820062002688632}, "name": "Jugged Hare"}, {"location": {"lat": 51.49518996006245, "lon": -0.13780837989007402}, "name": "The Windsor Castle"}, {"location": {"lat": 51.496318653864805, "lon": -0.13586789233043037}, "name": "The Greencoat Boy"}, {"location": {"lat": 51.497672040029116, "lon": -0.1355147399828754}, "name": "The Albert"}, {"location": {"lat": 51.49511043336367, "lon": -0.13168749999998938}, "name": "The Barley Mow"}, {"location": {"lat": 51.496750260026914, "lon": -0.13541034002031807}, "name": "The Bay & Bracket"}, {"location": {"lat": 51.49994483574236, "lon": -0.1337174285118863}, "name": "The Old Star"}, {"location": {"lat": 51.49257816001865, "lon": -0.13917795997457258}, "name": "The Queen's Arms"}, {"location": {"lat": 51.49502230000677, "lon": -0.13087098333676347}, "name": "The White Horse and Bower"}, {"location": {"lat": 51.49135910001604, "lon": -0.1392297299960891}, "name": "The Constitution"}, {"location": {"lat": 51.49241931431241, "lon": -0.1397038714165227}, "name": "The Warwick"}, {"location": {"lat": 51.49922577783087, "lon": -0.1329786777136913}, "name": "The Feathers"}, {"location": {"lat": 51.49916238334654, "lon": -0.1368109666299581}, "name": "The Buckingham Arms"}, {"location": {"lat": 51.499521130050574, "lon": -0.13178900004904387}, "name": "The Sanctuary House"}, {"location": {"lat": 51.49946458751837, "lon": -0.1356165999619029}, "name": "Adam & Eve"}]