[{"location": {"lat": 51.4530415, "lon": 0.1766114}, "name": "The Duke's Head"}, {"location": {"lat": 51.4518527, "lon": 0.1779385}, "name": "The Bear and Ragged Staff"}, {"location": {"lat": 51.4526941, "lon": 0.1769785}, "name": "The Crayford Arms"}, {"location": {"lat": 51.4522067, "lon": 0.1784664}, "name": "Penny Farthing"}, {"location": {"lat": 51.45370186668461, "lon": 0.17536659999741555}, "name": "The One Bell"}]