[{"location": {"lat": 51.4857771, "lon": -0.0913995}, "name": "The Queen Elizabeth"}, {"location": {"lat": 51.484547, "lon": -0.0936255}, "name": "The Red Lion"}, {"location": {"lat": 51.4893035, "lon": -0.0907551}, "name": null}, {"location": {"lat": 51.4861851, "lon": -0.098272}, "name": "The Beehive"}, {"location": {"lat": 51.4894265, "lon": -0.093757}, "name": "The Gladstone"}, {"location": {"lat": 51.488455, "lon": -0.093289}, "name": "The Bell"}, {"location": {"lat": 51.487872, "lon": -0.094495}, "name": "Good Intent"}, {"location": {"lat": 51.4851591, "lon": -0.095928}, "name": "Orbit Beers Brewery Tap Room"}]