[{"location": {"lat": 51.4895785, "lon": -0.1904313}, "name": "The Bolton"}, {"location": {"lat": 51.4813478, "lon": -0.1981412}, "name": "Wolfpack"}, {"location": {"lat": 51.4861841, "lon": -0.1962858}, "name": "The Atlas"}, {"location": {"lat": 51.4801804, "lon": -0.1956699}, "name": "Broadway Bar and Grill"}, {"location": {"lat": 51.4802519, "lon": -0.1945657}, "name": "Oyster Rooms"}, {"location": {"lat": 51.4856569, "lon": -0.1993009}, "name": "George & Dragon"}, {"location": {"lat": 51.4889152, "lon": -0.1914946}, "name": "The Pembroke"}, {"location": {"lat": 51.486562400027154, "lon": -0.19008555550477368}, "name": "Finborough Arms"}, {"location": {"lat": 51.486656650026646, "lon": -0.19740251665347228}, "name": "The Lillie Langtry"}, {"location": {"lat": 51.48710207003341, "lon": -0.19711999998127994}, "name": "The Prince"}, {"location": {"lat": 51.48711336001004, "lon": -0.1969139799813337}, "name": "Imperial Arms"}, {"location": {"lat": 51.48138143007059, "lon": -0.19951995007962545}, "name": "Cock Tavern"}, {"location": {"lat": 51.48292584002938, "lon": -0.19653783990488236}, "name": "The Harwood Arms"}]