[{"location": {"lat": 51.4993771, "lon": -0.0747406}, "name": "Hawkes Cider"}, {"location": {"lat": 51.4994717, "lon": -0.0748793}, "name": "The Barrel Project"}, {"location": {"lat": 51.4978487, "lon": -0.0728843}, "name": "Moor Beer Co"}, {"location": {"lat": 51.4976117, "lon": -0.0724164}, "name": "Brew By Numbers"}, {"location": {"lat": 51.4977919, "lon": -0.0727825}, "name": "Gosnells Meadery Taproom"}, {"location": {"lat": 51.4977496, "lon": -0.0726903}, "name": "Cloudwater"}, {"location": {"lat": 51.4973931, "lon": -0.0720002}, "name": "Bianca Road Brew Co."}, {"location": {"lat": 51.4972722, "lon": -0.0717603}, "name": "Craft Beer Junction"}, {"location": {"lat": 51.49375761669419, "lon": -0.07499636669779236}, "name": "The Grange Pub & Kitchen"}, {"location": {"lat": 51.4991166166933, "lon": -0.07367006668158572}, "name": "Marquis of Wellington"}]