[{"location": {"lat": 51.4827943, "lon": -0.3091397}, "name": "The Magpie and Crown"}, {"location": {"lat": 51.4892367, "lon": -0.3020541}, "name": "The New Inn"}, {"location": {"lat": 51.4882664, "lon": -0.304571}, "name": "The Brook"}, {"location": {"lat": 51.4870591, "lon": -0.3029644}, "name": "The Griffin"}, {"location": {"lat": 51.4863995, "lon": -0.3000448}, "name": "Royal Horse Guardsman"}, {"location": {"lat": 51.4855411, "lon": -0.3018164}, "name": "The Black Dog"}, {"location": {"lat": 51.48367161602967, "lon": -0.3062755719571141}, "name": "The Beehive"}, {"location": {"lat": 51.484700140016166, "lon": -0.3014157999936963}, "name": "Watermans Arms"}, {"location": {"lat": 51.483677590510744, "lon": -0.3094303237872262}, "name": "The Weir"}, {"location": {"lat": 51.4824039000286, "lon": -0.30621127142967247}, "name": "The Brewery Tap"}]