[{"location": {"lat": 51.4117684, "lon": -0.0587124}, "name": "The Golden Lion"}, {"location": {"lat": 51.413842300099915, "lon": -0.051969670131691986}, "name": "Pawleyne Arms"}, {"location": {"lat": 51.4159651429549, "lon": -0.05319289998658375}, "name": "The Crooked Billet"}, {"location": {"lat": 51.41334001603802, "lon": -0.05185970392915539}, "name": "The Goldsmiths"}, {"location": {"lat": 51.41266402241601, "lon": -0.05096614490243387}, "name": "Moon & Stars"}, {"location": {"lat": 51.41201096367762, "lon": -0.05776906362501172}, "name": "The Maple Tree"}]