[{"location": {"lat": 51.4285424, "lon": -0.0890699}, "name": "Gipsy Hill Brewery and Taproom"}, {"location": {"lat": 51.42794800004226, "lon": -0.08638091813766782}, "name": "The Paxton"}, {"location": {"lat": 51.427047480021216, "lon": -0.08902524000459497}, "name": "The Two Towers"}, {"location": {"lat": 51.42484924003301, "lon": -0.08335553999289755}, "name": "The Colby Arms"}, {"location": {"lat": 51.423864107763215, "lon": -0.08376879231420445}, "name": "The Great Southern"}, {"location": {"lat": 51.42243328572873, "lon": -0.08225810000578923}, "name": "Railway Bell"}]