[{"location": {"lat": 51.4989739, "lon": -0.1720838}, "name": "Eastside"}, {"location": {"lat": 51.4902108, "lon": -0.1733776}, "name": "The Crown"}, {"location": {"lat": 51.4986275, "lon": -0.1783206}, "name": "\u0127"}, {"location": {"lat": 51.490136877795806, "lon": -0.17697328891826228}, "name": "Anglesea Arms"}, {"location": {"lat": 51.49008553079108, "lon": -0.17497980766635096}, "name": "The Hunter's Moon"}, {"location": {"lat": 51.49339094002074, "lon": -0.17592376001813792}, "name": "Zetland Arms"}, {"location": {"lat": 51.49467642731839, "lon": -0.17433158183787437}, "name": "Hoop & Toy"}]