[{"location": {"lat": 51.4691887, "lon": -0.2100687}, "name": "Kings Arms"}, {"location": {"lat": 51.4693662, "lon": -0.2104484}, "name": "The Temperance"}, {"location": {"lat": 51.469875, "lon": -0.210032}, "name": "The Golden Lion"}, {"location": {"lat": 51.4655321, "lon": -0.2130828}, "name": "The Rocket"}, {"location": {"lat": 51.467304007724856, "lon": -0.21710176160281416}, "name": "Duke's Head"}, {"location": {"lat": 51.4652341286201, "lon": -0.21279891422166353}, "name": "The Boathouse"}, {"location": {"lat": 51.4660562125117, "lon": -0.2167591125151793}, "name": "Bricklayer's Arms"}, {"location": {"lat": 51.46804616003183, "lon": -0.21010641999040544}, "name": "The Eight Bells"}, {"location": {"lat": 51.46010275718579, "lon": -0.21259695720671243}, "name": "The Prince of Wales"}, {"location": {"lat": 51.46088446671876, "lon": -0.2176570499404953}, "name": "The Fox & Hounds"}, {"location": {"lat": 51.46149685721622, "lon": -0.2171412570920227}, "name": "Lost Society"}, {"location": {"lat": 51.462691154033806, "lon": -0.21669866145974043}, "name": "Spotted Horse"}, {"location": {"lat": 51.46701068013256, "lon": -0.21621981970563112}, "name": "The Star & Garter"}, {"location": {"lat": 51.46451381767942, "lon": -0.21662582937373534}, "name": "The Coat and Badge"}, {"location": {"lat": 51.46453030005749, "lon": -0.21855921429534717}, "name": "Jolly Gardeners"}]