[{"location": {"lat": 51.4237132, "lon": -0.334651}, "name": "The Adelaide"}, {"location": {"lat": 51.4239916, "lon": -0.3326669}, "name": "The Railway"}, {"location": {"lat": 51.42865015836247, "lon": -0.33820095004824585}, "name": "Abercorn Arms"}, {"location": {"lat": 51.427407587529046, "lon": -0.33058412493192474}, "name": "The Kings Arms"}, {"location": {"lat": 51.425372691764515, "lon": -0.3342397999049649}, "name": "The Park Caf\u00e9-Bar-Restaurant"}, {"location": {"lat": 51.42603001254769, "lon": -0.3304638000084208}, "name": "The Builders Arms"}, {"location": {"lat": 51.42674150004219, "lon": -0.3390679624782514}, "name": "Masons Arms"}, {"location": {"lat": 51.42700235559734, "lon": -0.3318283111562195}, "name": "The Teddington Arms"}, {"location": {"lat": 51.425799780012994, "lon": -0.33681134996379236}, "name": "The Hogarth"}, {"location": {"lat": 51.42368370558246, "lon": -0.33458515560132446}, "name": "The Adelaide"}, {"location": {"lat": 51.42397414669663, "lon": -0.3326562066101683}, "name": "The Railway"}]