[{"location": {"lat": 51.4727261, "lon": -0.1811598}, "name": "The Waterside"}, {"location": {"lat": 51.4776729, "lon": -0.1833426}, "name": "Lots Road"}, {"location": {"lat": 51.4786216, "lon": -0.1883136}, "name": "The Imperial Arms"}, {"location": {"lat": 51.4777107, "lon": -0.1896968}, "name": "Hand & Flower"}, {"location": {"lat": 51.4746783, "lon": -0.1888037}, "name": "Queen Elisabeth"}, {"location": {"lat": 51.47943654288245, "lon": -0.18692192142436387}, "name": "The Jam Tree"}, {"location": {"lat": 51.47699656927072, "lon": -0.1892873307588927}, "name": "The Rose"}, {"location": {"lat": 51.479200988911956, "lon": -0.18261107773780227}, "name": "Chelsea Ram"}, {"location": {"lat": 51.471130300052835, "lon": -0.18728775002960726}, "name": "The Sands End"}]