[{"location": {"lat": 51.4615658, "lon": -0.1733056}, "name": "The Plough"}, {"location": {"lat": 51.4652553, "lon": -0.1792283}, "name": "The Anchor"}, {"location": {"lat": 51.460204833346616, "lon": -0.17658631659820712}, "name": "Churchills"}, {"location": {"lat": 51.460203562523574, "lon": -0.1763541498778057}, "name": "Powder Keg"}, {"location": {"lat": 51.46277316668587, "lon": -0.17041812210360383}, "name": "Project Orange"}, {"location": {"lat": 51.469927111152735, "lon": -0.17130569991400835}, "name": "The Asparagus"}]