[{"location": {"lat": 51.4637713, "lon": -0.1681636}, "name": "The Falcon"}, {"location": {"lat": 51.4607139, "lon": -0.1671587}, "name": "The Northcote"}, {"location": {"lat": 51.4609207, "lon": -0.1664373}, "name": "The Goat"}, {"location": {"lat": 51.4671126, "lon": -0.1628828}, "name": "Fox and Hounds"}, {"location": {"lat": 51.4606421, "lon": -0.1690263}, "name": "Hawkins Forge"}, {"location": {"lat": 51.464037, "lon": -0.1676357}, "name": "The London and South Western"}, {"location": {"lat": 51.463322, "lon": -0.169801}, "name": "The Junction"}, {"location": {"lat": 51.4608635, "lon": -0.1629048}, "name": "The Breakfast Pub"}, {"location": {"lat": 51.46382008754662, "lon": -0.1680493875532443}, "name": "The Falcon"}, {"location": {"lat": 51.460828440026354, "lon": -0.1630408400153356}, "name": "Brewdog"}, {"location": {"lat": 51.46081524003395, "lon": -0.16357099998999858}, "name": "The Merchant of Battersea"}]