[{"location": {"lat": 51.4924346, "lon": -0.2283606}, "name": "The Hammersmith Ram"}, {"location": {"lat": 51.4905527, "lon": -0.2237557}, "name": "Duke of Cornwall"}, {"location": {"lat": 51.4927467, "lon": -0.2257217}, "name": "The Hop Poles"}, {"location": {"lat": 51.4916954, "lon": -0.2241818}, "name": "The Craft Beer Co."}, {"location": {"lat": 51.4931964, "lon": -0.2256837}, "name": "The William Morris"}, {"location": {"lat": 51.4930194, "lon": -0.2252083}, "name": "William Morris"}, {"location": {"lat": 51.49417210003701, "lon": -0.22414946667011812}, "name": "Duke of Hammersmith"}, {"location": {"lat": 51.49585086159083, "lon": -0.22073073858144382}, "name": "The Queens Head"}, {"location": {"lat": 51.49730898578569, "lon": -0.22749115719446836}, "name": "The Grove"}, {"location": {"lat": 51.49462542500664, "lon": -0.22731092499216507}, "name": "Dartmouth Castle"}, {"location": {"lat": 51.49307128754966, "lon": -0.2250107374246813}, "name": "The Swan"}, {"location": {"lat": 51.4931505942912, "lon": -0.22544712326479885}, "name": "William Morris"}]