[{"location": {"lat": 51.4428801, "lon": -0.1891411}, "name": "The Wandle"}, {"location": {"lat": 51.4417303, "lon": -0.1872736}, "name": "Halfway House"}, {"location": {"lat": 51.4423773, "lon": -0.1880911}, "name": "The Earlsfield"}, {"location": {"lat": 51.4420315, "lon": -0.1889649}, "name": "The Country House"}, {"location": {"lat": 51.4473544, "lon": -0.1896143}, "name": null}, {"location": {"lat": 51.44689675721308, "lon": -0.18958584281413307}, "name": "The Jolly Gardener"}, {"location": {"lat": 51.4473595000444, "lon": -0.18958389997951253}, "name": "The Grovesnor Arms"}]