[{"location": {"lat": 51.40923338890567, "lon": -0.2979547999884874}, "name": "The Albion"}, {"location": {"lat": 51.40907212730809, "lon": -0.2941730545925649}, "name": "The Six Bells"}, {"location": {"lat": 51.40752572860912, "lon": -0.2977062142894834}, "name": "The Cricketers"}, {"location": {"lat": 51.40919978338067, "lon": -0.29185123337728747}, "name": "The Bricklayers Arms"}, {"location": {"lat": 51.40193280003963, "lon": -0.2949770166696764}, "name": "The Duke of Buckingham"}, {"location": {"lat": 51.403285664327555, "lon": -0.2994439499199634}, "name": "The Spring Grove"}, {"location": {"lat": 51.40684045001584, "lon": -0.29847510834213614}, "name": "The Cocoanut"}]