[{"location": {"lat": 51.4285893, "lon": -0.1677325}, "name": "The Castle"}, {"location": {"lat": 51.4260884, "lon": -0.1659185}, "name": "The Antelope"}, {"location": {"lat": 51.4279059, "lon": -0.168504}, "name": "JJ Moons"}, {"location": {"lat": 51.426693, "lon": -0.1667803}, "name": "Tooting Tram & Social"}, {"location": {"lat": 51.4226708, "lon": -0.1601958}, "name": "Ramble Inn"}, {"location": {"lat": 51.426969470708976, "lon": -0.16703288235714692}, "name": "Graveney and Meadow"}]