[{"location": {"lat": 51.5056404, "lon": -0.1376491}, "name": "The Red Lion"}, {"location": {"lat": 51.5095922, "lon": -0.1317508}, "name": "Tom Cribb"}, {"location": {"lat": 51.5063011, "lon": -0.1374682}, "name": "The Golden Lion"}, {"location": {"lat": 51.5060317, "lon": -0.1379924}, "name": "Davy's"}, {"location": {"lat": 51.5083234, "lon": -0.1364346}, "name": "The Red Lion"}, {"location": {"lat": 51.5086113, "lon": -0.1351466}, "name": "Three Crowns"}, {"location": {"lat": 51.50754974287907, "lon": -0.13776148575295896}, "name": "Chequers"}, {"location": {"lat": 51.50063294002372, "lon": -0.1316183399925201}, "name": "Two Chairmen"}]