[{"location": {"lat": 51.5122519, "lon": -0.0928038}, "name": "Sugar Loaf"}, {"location": {"lat": 51.5150683, "lon": -0.0983225}, "name": "The Paternoster"}, {"location": {"lat": 51.5145419, "lon": -0.0948116}, "name": "The Livery"}, {"location": {"lat": 51.5125703, "lon": -0.0986969}, "name": "The Centre Page"}, {"location": {"lat": 51.5122001, "lon": -0.0955593}, "name": "The Sea Horse"}, {"location": {"lat": 51.5163243, "lon": -0.0940154}, "name": "Slug & Lettuce"}, {"location": {"lat": 51.5125386, "lon": -0.0992382}, "name": "One Knightrider"}, {"location": {"lat": 51.519461785729426, "lon": -0.09914992858952475}, "name": "Old Red Cow"}, {"location": {"lat": 51.51653588895949, "lon": -0.0965826666511928}, "name": "The Lord Raglan"}, {"location": {"lat": 51.51569392729083, "lon": -0.09027927274408946}, "name": "Old Doctor Butler's Head"}, {"location": {"lat": 51.51294502730939, "lon": -0.0939985727274332}, "name": "The Pavilion End"}, {"location": {"lat": 51.51290628001165, "lon": -0.09357240001221206}, "name": "Ye Olde Watling"}, {"location": {"lat": 51.51327882091456, "lon": -0.09406575827694995}, "name": "Williamson's Tavern"}, {"location": {"lat": 51.51933508573255, "lon": -0.09879905714984816}, "name": "The Hand & Shears"}, {"location": {"lat": 51.51911571334449, "lon": -0.09984314665759456}, "name": "Rising Sun"}, {"location": {"lat": 51.517052378615446, "lon": -0.09836284288184532}, "name": "The Exchange"}, {"location": {"lat": 51.512088416678424, "lon": -0.0937039499981259}, "name": "Three Cranes"}, {"location": {"lat": 51.51325841672906, "lon": -0.09270352500624575}, "name": "The Golden Fleece"}, {"location": {"lat": 51.51087428017894, "lon": -0.09077839982858907}, "name": "Pelt Trader"}, {"location": {"lat": 51.51044134019723, "lon": -0.09623609998284244}, "name": "The Pepys"}]