[{"location": {"lat": 51.5154029, "lon": -0.1043348}, "name": "White Haus"}, {"location": {"lat": 51.5137876, "lon": -0.1092189}, "name": "Serjeants"}, {"location": {"lat": 51.5190993, "lon": -0.1088628}, "name": "The Argyle"}, {"location": {"lat": 51.5181575, "lon": -0.1088985}, "name": "Sir Christopher Hatton"}, {"location": {"lat": 51.51525, "lon": -0.1064245}, "name": "Kanaloa"}, {"location": {"lat": 51.5132814, "lon": -0.1047478}, "name": "St Bride's Tavern;St Brides Tavern"}, {"location": {"lat": 51.5158982, "lon": -0.1080904}, "name": "The Refinery"}, {"location": {"lat": 51.5122568, "lon": -0.1016371}, "name": "Rudds"}, {"location": {"lat": 51.5139036, "lon": -0.1045738}, "name": "The Albion"}, {"location": {"lat": 51.5128943, "lon": -0.1094514}, "name": "Pegasus"}, {"location": {"lat": 51.5140324, "lon": -0.1050005}, "name": "Crown & Sugar Loaf"}, {"location": {"lat": 51.5166863, "lon": -0.1089721}, "name": "BrewDog"}, {"location": {"lat": 51.51951118582001, "lon": -0.10279048589986406}, "name": "Smiths of Smithfield"}, {"location": {"lat": 51.51433300000954, "lon": -0.10718840000866359}, "name": "Ye Olde Cheshire Cheese"}, {"location": {"lat": 51.514037560003395, "lon": -0.10519490001841239}, "name": "The Old Bell"}, {"location": {"lat": 51.51368895715357, "lon": -0.10715437142843408}, "name": "The Hack and Hop"}, {"location": {"lat": 51.51976420002913, "lon": -0.10645571250548355}, "name": "The One Tun"}, {"location": {"lat": 51.51848341430309, "lon": -0.10193878572044032}, "name": "The Bishops Finger"}, {"location": {"lat": 51.51893818576635, "lon": -0.10059988574685909}, "name": "St. Barts Brewery"}, {"location": {"lat": 51.518815560064276, "lon": -0.10045041989715008}, "name": "The Butcher's Hook and Cleaver"}, {"location": {"lat": 51.51977900001884, "lon": -0.10211823751638825}, "name": "The Hope"}, {"location": {"lat": 51.512966140029185, "lon": -0.1067614599909619}, "name": "The Harrow"}, {"location": {"lat": 51.51833099232605, "lon": -0.10251077688482423}, "name": "Bird of Smithfield"}, {"location": {"lat": 51.512719244469565, "lon": -0.10145915555467393}, "name": "The Cockpit"}, {"location": {"lat": 51.51213766670176, "lon": -0.10366151673229562}, "name": "The Blackfriar"}, {"location": {"lat": 51.5162803250135, "lon": -0.1017110687357642}, "name": "The Viaduct Tavern"}, {"location": {"lat": 51.517056060028224, "lon": -0.10534407998945006}, "name": "The Plumtree"}, {"location": {"lat": 51.51399704706983, "lon": -0.10487932355942232}, "name": "The Punch Tavern"}, {"location": {"lat": 51.514056633338555, "lon": -0.10762118332829403}, "name": "The Tipperary"}, {"location": {"lat": 51.51248405557167, "lon": -0.10151897780270412}, "name": "Shaw's Booksellers"}, {"location": {"lat": 51.51843832501566, "lon": -0.10740813748020551}, "name": "Ye Olde Mitre"}, {"location": {"lat": 51.51314461669175, "lon": -0.10144594999497533}, "name": "The Rising Sun"}, {"location": {"lat": 51.51338483080032, "lon": -0.10122910770488473}, "name": "Wolfgang's Beer Haus"}, {"location": {"lat": 51.51928958004279, "lon": -0.10378253978834917}, "name": "The Draft House"}, {"location": {"lat": 51.519383225025805, "lon": -0.10695031670493199}, "name": "The Bleeding Heart Tavern"}, {"location": {"lat": 51.51981173339222, "lon": -0.10597455006492847}, "name": "Sir John Oldcastle"}, {"location": {"lat": 51.51409885001141, "lon": -0.10217796669831201}, "name": "Ye Olde London"}, {"location": {"lat": 51.515873033398, "lon": -0.10246575830108938}, "name": "Magpie & Stump"}, {"location": {"lat": 51.515863711146146, "lon": -0.10441997778900182}, "name": "Harrild and Sons"}]