[{"location": {"lat": 51.5425434, "lon": -0.1548897}, "name": "The Pembroke Castle"}, {"location": {"lat": 51.5414171, "lon": -0.1533533}, "name": "The Lansdowne"}, {"location": {"lat": 51.5497411, "lon": -0.156314}, "name": "The Lord Southampton"}, {"location": {"lat": 51.5490983, "lon": -0.1527848}, "name": "Sir Robert Peel"}, {"location": {"lat": 51.5468668, "lon": -0.1588287}, "name": "Sir Richard Steele"}, {"location": {"lat": 51.54054841001839, "lon": -0.15770750997091948}, "name": "The Queens"}, {"location": {"lat": 51.54404290002005, "lon": -0.1526174200046833}, "name": "The Enterprise"}, {"location": {"lat": 51.540028220061856, "lon": -0.15078883989978542}, "name": "The Engineer"}, {"location": {"lat": 51.540393200020524, "lon": -0.15400997143612077}, "name": "The Princess of Wales"}, {"location": {"lat": 51.54605452003925, "lon": -0.15107302999634775}, "name": "The Fiddler's Elbow"}]