[{"location": {"lat": 51.5308048, "lon": -0.0757684}, "name": "Brewhouse & Kitchen Hoxton"}, {"location": {"lat": 51.53671106009102, "lon": -0.07566366000980963}, "name": "Signature Brew Taproom and Venue"}, {"location": {"lat": 51.53620435001706, "lon": -0.07707418334005275}, "name": "The Glory"}, {"location": {"lat": 51.53894225002403, "lon": -0.07852344997367947}, "name": "Duke of York"}, {"location": {"lat": 51.53311276008535, "lon": -0.07987179998265412}, "name": "Howl at the Moon"}, {"location": {"lat": 51.535403275030006, "lon": -0.07714472499147884}, "name": "The Kings Head"}]