[{"location": {"lat": 51.5116826, "lon": -0.3051555}, "name": "The Drapers Arms"}, {"location": {"lat": 51.5102956, "lon": -0.3052313}, "name": "The Grove"}, {"location": {"lat": 51.5148399, "lon": -0.302661}, "name": "The Shanakee"}, {"location": {"lat": 51.5138717, "lon": -0.3018562}, "name": "The North Star"}, {"location": {"lat": 51.5168303, "lon": -0.3000951}, "name": "The Haven Arms"}, {"location": {"lat": 51.5109852, "lon": -0.3021186}, "name": "King's Arms"}]