[{"location": {"lat": 51.53201398335596, "lon": -0.06311346668681961}, "name": "Sebright Arms"}, {"location": {"lat": 51.536341066723345, "lon": -0.061737583347167065}, "name": "The Dove"}, {"location": {"lat": 51.537479555591986, "lon": -0.06089338888243651}, "name": "Cat and Mutton"}, {"location": {"lat": 51.53013235001542, "lon": -0.06969540000374044}, "name": "The Nelson's"}, {"location": {"lat": 51.530863300008946, "lon": -0.06950528568131534}, "name": "The Marksman"}, {"location": {"lat": 51.53369314449752, "lon": -0.06433765553695565}, "name": "The Virgin Queen"}, {"location": {"lat": 51.535072088924274, "lon": -0.06257005559638108}, "name": "The Perseverance"}]