[{"location": {"lat": 51.5401086, "lon": -0.0744743}, "name": "The Duke of Wellington"}, {"location": {"lat": 51.54610806254681, "lon": -0.07541374998579846}, "name": "The Crown and Castle"}, {"location": {"lat": 51.54877742861022, "lon": -0.07938055707483185}, "name": "Railway Tavern"}, {"location": {"lat": 51.548275066687616, "lon": -0.07558066667011955}, "name": "Railway Tavern"}, {"location": {"lat": 51.54275124002491, "lon": -0.07921107998929205}, "name": "The Talbot"}, {"location": {"lat": 51.54759500000968, "lon": -0.07569717144826452}, "name": "The Kingsland"}, {"location": {"lat": 51.542313620068434, "lon": -0.07585615998397942}, "name": "The Haggerston"}, {"location": {"lat": 51.545755666749564, "lon": -0.07008829996771603}, "name": "The Victoria"}]