[{"location": {"lat": 51.5268382, "lon": -0.062111}, "name": "The Star Of Bethnal Green"}, {"location": {"lat": 51.523964025011814, "lon": -0.06734884166386193}, "name": "Carpenters Arms"}, {"location": {"lat": 51.52704364289615, "lon": -0.060757757193919786}, "name": "The Old George"}, {"location": {"lat": 51.52953496001752, "lon": -0.06929314000726335}, "name": "The Royal Oak"}, {"location": {"lat": 51.52569221671033, "lon": -0.0657508833232275}, "name": "The Kings Arms"}, {"location": {"lat": 51.5263221833576, "lon": -0.06442356662851853}, "name": "Marquis of Cornwallis"}]