[{"location": {"lat": 51.5454596, "lon": -0.4800154}, "name": "The Metropolitan"}, {"location": {"lat": 51.5455668, "lon": -0.4802997}, "name": "The Fig Tree"}, {"location": {"lat": 51.5476493, "lon": -0.4806061}, "name": "Whelans"}, {"location": {"lat": 51.5436142, "lon": -0.4878451}, "name": "The Dolphin"}, {"location": {"lat": 51.5499882001009, "lon": -0.48420513838374757}, "name": "The Crown and Treaty"}, {"location": {"lat": 51.542752857155776, "lon": -0.4884531285308054}, "name": "The General Elliott"}, {"location": {"lat": 51.54149154289282, "lon": -0.4898390429016438}, "name": "The Pipemakers Arms"}, {"location": {"lat": 51.54789839180112, "lon": -0.4806519668665224}, "name": "The Good Yarn"}]