[{"location": {"lat": 51.5225796, "lon": -0.1711704}, "name": "The Lord High Admiral"}, {"location": {"lat": 51.5254495, "lon": -0.1788998}, "name": "Windsor Castle"}, {"location": {"lat": 51.525487744469224, "lon": -0.17920421109873966}, "name": "The Eagle"}, {"location": {"lat": 51.52035965715449, "lon": -0.17034060000723628}, "name": "The Green Man"}, {"location": {"lat": 51.52826541689613, "lon": -0.17359133307343075}, "name": "Lord's Tavern"}, {"location": {"lat": 51.523710071448996, "lon": -0.17017515711438372}, "name": "The Trader's Inn"}]