[{"location": {"lat": 51.5221729, "lon": -0.1032382}, "name": "Clerkenwell Social"}, {"location": {"lat": 51.5202193, "lon": -0.1041739}, "name": "The Castle EC1"}, {"location": {"lat": 51.5204548, "lon": -0.1033955}, "name": "Sports Bar & Grill"}, {"location": {"lat": 51.5298098, "lon": -0.1048949}, "name": "Pearl and Feather"}, {"location": {"lat": 51.5224158, "lon": -0.1074931}, "name": "Ninth Ward"}, {"location": {"lat": 51.52336711430982, "lon": -0.10804257141815769}, "name": "Betsey Trotwood"}, {"location": {"lat": 51.52430520002239, "lon": -0.10292812858035712}, "name": "Simmons"}, {"location": {"lat": 51.52043241676368, "lon": -0.10075953317026526}, "name": "Fox and Anchor"}, {"location": {"lat": 51.52293642225132, "lon": -0.10412638888459551}, "name": "The Artisan"}, {"location": {"lat": 51.52302700002379, "lon": -0.10930179090594008}, "name": "The Coach"}, {"location": {"lat": 51.52945335003025, "lon": -0.10681613334058261}, "name": "The Shakespeare's Head"}, {"location": {"lat": 51.52576295001381, "lon": -0.10965048748607262}, "name": "Exmouth Arms"}, {"location": {"lat": 51.526748033341235, "lon": -0.10893585001745201}, "name": "Olde China Hand"}, {"location": {"lat": 51.52597080002304, "lon": -0.10920148001208856}, "name": "Mikkeller Brewpub London"}, {"location": {"lat": 51.524327733394735, "lon": -0.10822405563672287}, "name": "The Bowler"}, {"location": {"lat": 51.524338800007875, "lon": -0.10443778572512166}, "name": "The Sekforde"}, {"location": {"lat": 51.528167071473355, "lon": -0.10449325717629551}, "name": "Dame Alice Owen"}, {"location": {"lat": 51.52024537008073, "lon": -0.1013811799166336}, "name": "Barsmith"}, {"location": {"lat": 51.52572484002735, "lon": -0.10381974999282932}, "name": "The Peasant"}, {"location": {"lat": 51.52120690001574, "lon": -0.10176206001156218}, "name": "White Bear"}, {"location": {"lat": 51.52331772000705, "lon": -0.10033907997569093}, "name": "The Sutton Arms"}, {"location": {"lat": 51.524141962518954, "lon": -0.10975878750671655}, "name": "The Eagle"}, {"location": {"lat": 51.52276812309172, "lon": -0.10638666152395354}, "name": "The Green"}, {"location": {"lat": 51.52320631112654, "lon": -0.10399588889482049}, "name": "The Dovetail"}, {"location": {"lat": 51.52388245001075, "lon": -0.10678734998775816}, "name": "Horseshoe"}, {"location": {"lat": 51.5231664600128, "lon": -0.10525045999066465}, "name": "The Crown Tavern"}, {"location": {"lat": 51.523282787515264, "lon": -0.10583762498235162}, "name": "The Three Kings"}, {"location": {"lat": 51.52333338575884, "lon": -0.1011980856573462}, "name": "The Slaughtered Lamb"}, {"location": {"lat": 51.529892600028155, "lon": -0.10619351426835681}, "name": "The Harlequin"}, {"location": {"lat": 51.521783480020595, "lon": -0.10405130002790747}, "name": "The Holy Tavern"}, {"location": {"lat": 51.52300454287277, "lon": -0.10696898572334351}, "name": "The City Pride"}, {"location": {"lat": 51.52123821667874, "lon": -0.10971363333372532}, "name": "The Craft Beer Co."}, {"location": {"lat": 51.52005860000523, "lon": -0.10390981817113012}, "name": "The Three Compasses"}, {"location": {"lat": 51.5200036750189, "lon": -0.10374940000737869}, "name": "The Fence"}, {"location": {"lat": 51.521753150021866, "lon": -0.10812568326701005}, "name": "The Hat and Tun"}, {"location": {"lat": 51.52430925717064, "lon": -0.10441437851986485}, "name": "The Sekforde"}]