[{"location": {"lat": 51.5432581, "lon": -0.1034131}, "name": "The Hope and Anchor"}, {"location": {"lat": 51.5460243, "lon": -0.1019468}, "name": "Hen and Chickens theatre & bar"}, {"location": {"lat": 51.5487172, "lon": -0.1069806}, "name": "The Lamb"}, {"location": {"lat": 51.5479817, "lon": -0.1065443}, "name": "House of Hammerton"}, {"location": {"lat": 51.5463365, "lon": -0.1087488}, "name": "The Duchess of Kent"}, {"location": {"lat": 51.5436556, "lon": -0.1020128}, "name": "The Compton Arms"}, {"location": {"lat": 51.5460069, "lon": -0.1035265}, "name": "The Famous Cock"}, {"location": {"lat": 51.5499802, "lon": -0.1084358}, "name": "The Horatia"}, {"location": {"lat": 51.545728, "lon": -0.1034102}, "name": "The White Swan"}, {"location": {"lat": 51.54078110003224, "lon": -0.10198291665639585}, "name": "The Florence"}, {"location": {"lat": 51.54052505717551, "lon": -0.10846547142356011}, "name": "The Drapers Arms"}, {"location": {"lat": 51.544703700047506, "lon": -0.10363996664939491}, "name": "The Library"}, {"location": {"lat": 51.54076642859797, "lon": -0.10298604286862567}, "name": "The Taproom"}, {"location": {"lat": 51.541655120143396, "lon": -0.10328692021154244}, "name": "The Vineyard"}, {"location": {"lat": 51.546313106974104, "lon": -0.10175903381908387}, "name": "Brewhouse & Kitchen Highbury"}]