[{"location": {"lat": 51.5165109, "lon": -0.1307587}, "name": "The Flying Horse"}, {"location": {"lat": 51.5165073, "lon": -0.1373884}, "name": "The Adam & Eve"}, {"location": {"lat": 51.511115, "lon": -0.131813}, "name": "Waxy's Little Sister"}, {"location": {"lat": 51.51186, "lon": -0.133452}, "name": "White Horse"}, {"location": {"lat": 51.5155449, "lon": -0.1366581}, "name": "Green Man"}, {"location": {"lat": 51.5165329, "lon": -0.1326779}, "name": "Bradley's Spanish Bar"}, {"location": {"lat": 51.510566, "lon": -0.1376134}, "name": "The Leicester Arms"}, {"location": {"lat": 51.5111757, "lon": -0.1363142}, "name": "The Crown"}, {"location": {"lat": 51.5151393, "lon": -0.130809}, "name": "Royal George"}, {"location": {"lat": 51.5126049, "lon": -0.1325151}, "name": "Comptons of Soho"}, {"location": {"lat": 51.5134435, "lon": -0.1303052}, "name": "The Three Greyhounds"}, {"location": {"lat": 51.51403732504813, "lon": -0.13914901655112305}, "name": "O'Neills"}, {"location": {"lat": 51.51697210003409, "lon": -0.135507685746055}, "name": "The Blue Posts"}, {"location": {"lat": 51.51870991668715, "lon": -0.13597815001394153}, "name": "Duke of York"}, {"location": {"lat": 51.51921706001613, "lon": -0.13577554002281814}, "name": "The Queen Charlotte"}, {"location": {"lat": 51.51062163336392, "lon": -0.13703470001697104}, "name": "The Glassblower"}, {"location": {"lat": 51.51913090002664, "lon": -0.13668472219096275}, "name": "The One Tun"}, {"location": {"lat": 51.51776458890605, "lon": -0.13342618890583066}, "name": "Bricklayers Arms"}, {"location": {"lat": 51.517757925020035, "lon": -0.13402416251905766}, "name": "The Wheatsheaf"}, {"location": {"lat": 51.51864888004866, "lon": -0.13467264002662305}, "name": "Fitzroy Tavern"}, {"location": {"lat": 51.5126444666748, "lon": -0.13657664998782296}, "name": "Sun and 13 Cantons"}, {"location": {"lat": 51.51184838751976, "lon": -0.13467178749209638}, "name": "Duke of Argylle"}, {"location": {"lat": 51.513832880016665, "lon": -0.135007349999772}, "name": "The Blue Posts"}, {"location": {"lat": 51.51293462858536, "lon": -0.13229637138272446}, "name": "Admiral Duncan"}, {"location": {"lat": 51.51233162502027, "lon": -0.1331244750182465}, "name": "Duke of Wellington"}, {"location": {"lat": 51.51404621252512, "lon": -0.13421586253414336}, "name": "The Ship"}, {"location": {"lat": 51.51988865001993, "lon": -0.1348273499980574}, "name": "The Fitzrovia"}, {"location": {"lat": 51.51802076251638, "lon": -0.13463924998573204}, "name": "Marquis of Granby"}, {"location": {"lat": 51.51130410001502, "lon": -0.1343796166750752}, "name": "The Lyric"}, {"location": {"lat": 51.51343353334962, "lon": -0.13826041665756636}, "name": "The Shaston Arms"}, {"location": {"lat": 51.513672875018855, "lon": -0.13952958752387842}, "name": "Shakespeare's Head"}, {"location": {"lat": 51.51337149233286, "lon": -0.13867625382945187}, "name": "White Horse"}, {"location": {"lat": 51.512907220015585, "lon": -0.1394344600077439}, "name": "The Blue Posts"}, {"location": {"lat": 51.512605657165444, "lon": -0.13739155709752396}, "name": "The Old Coffee House"}, {"location": {"lat": 51.513288357158906, "lon": -0.13662235713441256}, "name": "The John Snow"}, {"location": {"lat": 51.51362763002917, "lon": -0.13652289003440823}, "name": "Star & Garter"}, {"location": {"lat": 51.51492313335268, "lon": -0.13526036668726701}, "name": "The George"}, {"location": {"lat": 51.51462912860653, "lon": -0.1310609857507027}, "name": "Pillars of Hercules"}, {"location": {"lat": 51.51398062994727, "lon": -0.13016773363723086}, "name": "The Montagu Pyke"}, {"location": {"lat": 51.513267290017644, "lon": -0.13014508002686953}, "name": "The Coach and Horses"}, {"location": {"lat": 51.513981140017364, "lon": -0.13193202002337787}, "name": "The Dog and Duck"}, {"location": {"lat": 51.513841016686854, "lon": -0.13245485001890947}, "name": "The Crown & Two Chairmen"}, {"location": {"lat": 51.512743420011574, "lon": -0.1317282199883382}, "name": "French House"}, {"location": {"lat": 51.51485148334211, "lon": -0.13344734997663552}, "name": "Nellie Dean of Soho"}, {"location": {"lat": 51.5151305500092, "lon": -0.1331364749915024}, "name": "The Toucan"}, {"location": {"lat": 51.51084435015675, "lon": -0.13209462513990947}, "name": "Waxy O'Connor's"}, {"location": {"lat": 51.518779711145804, "lon": -0.13214181109020864}, "name": "The Jack Horner"}, {"location": {"lat": 51.519927677805484, "lon": -0.13190955545842561}, "name": "The College Arms"}, {"location": {"lat": 51.51919744549677, "lon": -0.133258654549233}, "name": "The Rising Sun"}, {"location": {"lat": 51.51893574001485, "lon": -0.13948553997991195}, "name": "The Green Man"}, {"location": {"lat": 51.515150171481295, "lon": -0.1372347000470939}, "name": "King's Arms"}, {"location": {"lat": 51.51507044449141, "lon": -0.13718196669393354}, "name": "BrewDog Soho"}, {"location": {"lat": 51.514935012508055, "lon": -0.1373453124733315}, "name": "Coach and Horses"}, {"location": {"lat": 51.5114735000188, "lon": -0.13533941994498824}, "name": "Glasshouse Stores"}, {"location": {"lat": 51.512536916689434, "lon": -0.1315562999965687}, "name": "Golden Lion"}, {"location": {"lat": 51.51089373752559, "lon": -0.1341169624572723}, "name": "St James Tavern"}, {"location": {"lat": 51.51079658334084, "lon": -0.1353562833267464}, "name": "The Queen's Head"}, {"location": {"lat": 51.51269096002027, "lon": -0.13913512004344125}, "name": "The Red Lion"}, {"location": {"lat": 51.518120575014855, "lon": -0.13523610002143022}, "name": "Newman Arms"}, {"location": {"lat": 51.516875628588416, "lon": -0.13726307142379143}, "name": "The Champion"}, {"location": {"lat": 51.51211567275891, "lon": -0.13119255459750107}, "name": "De Hems Cafe Bar"}, {"location": {"lat": 51.511293787513566, "lon": -0.13143997495726903}, "name": "Slug & Lettuce"}, {"location": {"lat": 51.511318386724625, "lon": -0.13234620668557184}, "name": "O'Neills"}, {"location": {"lat": 51.51099206004277, "lon": -0.13101360005410562}, "name": "The Imperial"}]