[{"location": {"lat": 51.53677488242608, "lon": -0.043250588346231}, "name": "The Royal Inn on the Park"}, {"location": {"lat": 51.53291668574371, "lon": -0.04161976662449773}, "name": "The Crown"}, {"location": {"lat": 51.53715044445784, "lon": -0.04890886664376783}, "name": "The Hemingway"}, {"location": {"lat": 51.53787286431614, "lon": -0.04515262143822144}, "name": "The Lauriston"}, {"location": {"lat": 51.53844164288639, "lon": -0.04397205710792713}, "name": "Hector & Noble"}]