[{"location": {"lat": 51.55382, "lon": -0.0980505}, "name": "Highbury Barn"}, {"location": {"lat": 51.55784908001597, "lon": -0.09080025994164766}, "name": "Clissold Park Tavern"}, {"location": {"lat": 51.558344842900475, "lon": -0.09878174287706627}, "name": "Bank of Friendship"}, {"location": {"lat": 51.55896714294178, "lon": -0.09893892864232409}, "name": "The Gunners"}, {"location": {"lat": 51.55953045725074, "lon": -0.09838114285419335}, "name": "The Woodbine"}]