[{"location": {"lat": 51.5218219, "lon": -0.1337724}, "name": "The Marlborough Arms"}, {"location": {"lat": 51.5231854, "lon": -0.138689}, "name": "The Grafton Arms"}, {"location": {"lat": 51.5259074, "lon": -0.1378517}, "name": "Square Tavern"}, {"location": {"lat": 51.527798, "lon": -0.131988}, "name": "Doric Arch"}, {"location": {"lat": 51.5283514, "lon": -0.1389467}, "name": "Shaker and Company"}, {"location": {"lat": 51.5298886, "lon": -0.1334432}, "name": "The Prince Arthur"}, {"location": {"lat": 51.5281206, "lon": -0.1388221}, "name": "Shaker and Co"}, {"location": {"lat": 51.5280324, "lon": -0.1328679}, "name": "The Signal Box"}, {"location": {"lat": 51.5242402, "lon": -0.1385144}, "name": "Prince of Wales Feathers"}, {"location": {"lat": 51.52177265002807, "lon": -0.13649449991065876}, "name": "Carpenters Arms"}, {"location": {"lat": 51.52354274006064, "lon": -0.13555886008487128}, "name": "Simmons"}, {"location": {"lat": 51.52710150001029, "lon": -0.13212186000653883}, "name": "Cider Tap"}, {"location": {"lat": 51.52695214001067, "lon": -0.1325430400042554}, "name": "Euston Tap"}, {"location": {"lat": 51.5283285818526, "lon": -0.13161159993461458}, "name": "Royal George"}, {"location": {"lat": 51.52789352003052, "lon": -0.136703440006403}, "name": "Exmouth Arms"}, {"location": {"lat": 51.52042756667328, "lon": -0.1353399333202043}, "name": "The Hope"}, {"location": {"lat": 51.52299568003169, "lon": -0.13690308005737992}, "name": "The Court"}, {"location": {"lat": 51.523499250019924, "lon": -0.1373558666847986}, "name": "The Northumberland Arms"}, {"location": {"lat": 51.526869100036976, "lon": -0.13699964547273502}, "name": "Crown & Anchor"}, {"location": {"lat": 51.52417816155111, "lon": -0.13848814610992147}, "name": "Prince of Wales Feathers"}, {"location": {"lat": 51.52023133336349, "lon": -0.13864886670802823}, "name": "The King & Queen"}, {"location": {"lat": 51.52210829092908, "lon": -0.1396082909167451}, "name": "Lore of the Land"}, {"location": {"lat": 51.52250998756144, "lon": -0.1357895751660344}, "name": "Fitzrovia Belle"}, {"location": {"lat": 51.5251627333465, "lon": -0.13505291112465648}, "name": "The Huntley"}, {"location": {"lat": 51.529896654585045, "lon": -0.13004080001329485}, "name": "Somers Town Coffee House"}]