[{"location": {"lat": 51.5190934, "lon": -0.0589373}, "name": "Urban Bar"}, {"location": {"lat": 51.5131287, "lon": -0.0566157}, "name": "Thomas Neale"}, {"location": {"lat": 51.5139726, "lon": -0.0550705}, "name": "The Dean Swift"}, {"location": {"lat": 51.51433121114765, "lon": -0.05302961113627374}, "name": "The George Tavern"}, {"location": {"lat": 51.51444150000743, "lon": -0.05801372859200381}, "name": "Hungerford Arms"}]