[{"location": {"lat": 51.5328109, "lon": -0.1373221}, "name": "Escape Sports Bar & Restaurant"}, {"location": {"lat": 51.5333448, "lon": -0.1342188}, "name": "Eastnor Castle"}, {"location": {"lat": 51.53114415719318, "lon": -0.13138882852127762}, "name": "Cock Tavern"}, {"location": {"lat": 51.53469716003259, "lon": -0.1392065999753053}, "name": "Simmons"}, {"location": {"lat": 51.534560891698256, "lon": -0.13933656664229}, "name": "Lyttelton Arms"}, {"location": {"lat": 51.534820461557466, "lon": -0.13762966922394174}, "name": "Hope & Anchor"}, {"location": {"lat": 51.535453988930776, "lon": -0.13904863334664871}, "name": "The Cobden"}, {"location": {"lat": 51.53448354009419, "lon": -0.13788170007163048}, "name": "The Purple Turtle"}, {"location": {"lat": 51.53912057780931, "lon": -0.1359277222593935}, "name": "The Golden Lion"}, {"location": {"lat": 51.53603173337734, "lon": -0.13959754450747944}, "name": "Belushi's"}, {"location": {"lat": 51.53994445004588, "lon": -0.13700848996537068}, "name": "The Prince Albert"}]