[{"location": {"lat": 51.5210275, "lon": -0.1842132}, "name": "The Bridge House"}, {"location": {"lat": 51.5226664, "lon": -0.1877985}, "name": "The Waterway"}, {"location": {"lat": 51.52436746155494, "lon": -0.18868623079836958}, "name": "The Hero of Maida"}, {"location": {"lat": 51.524421428595296, "lon": -0.18485012858704727}, "name": "Prince Alfred"}, {"location": {"lat": 51.52719251670453, "lon": -0.1830850999861688}, "name": "Warrington"}, {"location": {"lat": 51.522037228587024, "lon": -0.18389374284283544}, "name": "Warwick Castle"}]