[{"location": {"lat": 51.53345322503261, "lon": -0.057510483343438355}, "name": "The Hare"}, {"location": {"lat": 51.53865340840358, "lon": -0.0572379333351112}, "name": "Martello Hall"}, {"location": {"lat": 51.53133846254234, "lon": -0.051801674931429856}, "name": "The Approach Tavern"}, {"location": {"lat": 51.53467598751951, "lon": -0.05562057496670215}, "name": "The Victory"}, {"location": {"lat": 51.53243726668702, "lon": -0.059117733331478343}, "name": "The Queen Adelaide"}, {"location": {"lat": 51.539876825022944, "lon": -0.056190737479259845}, "name": "The Dolphin"}]