[{"location": {"lat": 51.5148862, "lon": -0.0687963}, "name": "The Castle"}, {"location": {"lat": 51.5173312, "lon": -0.061108}, "name": "The Good Samaritan"}, {"location": {"lat": 51.517315, "lon": -0.0613634}, "name": "The Griff Inn Bar & Kitchen"}, {"location": {"lat": 51.5136121, "lon": -0.0698082}, "name": "The Running Horse"}, {"location": {"lat": 51.5154937, "lon": -0.0691511}, "name": "The Bar Locks"}, {"location": {"lat": 51.511386171465084, "lon": -0.06847545715374855}, "name": "The Brown Bear"}, {"location": {"lat": 51.51270130910663, "lon": -0.06689529993569202}, "name": "Dog & Truck"}]