[{"location": {"lat": 51.52886418010504, "lon": -0.216257380034711}, "name": "Paradise by way of Kensal Green"}, {"location": {"lat": 51.528657714323884, "lon": -0.216522314262052}, "name": "Parlour Kensal"}, {"location": {"lat": 51.528913400060645, "lon": -0.2183258499938707}, "name": "William IV"}, {"location": {"lat": 51.522211737537965, "lon": -0.21254873749733574}, "name": "The Eagle"}, {"location": {"lat": 51.52609358337278, "lon": -0.21146565000699324}, "name": "Frames"}]