[{"location": {"lat": 51.5164813, "lon": -0.1698266}, "name": "The Monkey Puzzle"}, {"location": {"lat": 51.5181298, "lon": -0.1657799}, "name": "Lord Wargrave"}, {"location": {"lat": 51.5175308, "lon": -0.1640235}, "name": "Duke of York"}, {"location": {"lat": 51.519401, "lon": -0.1649455}, "name": "The Beehive"}, {"location": {"lat": 51.51981362009019, "lon": -0.16617566673774545}, "name": "The Chapel"}, {"location": {"lat": 51.51455352861242, "lon": -0.16623557862626626}, "name": "The Duke of Kendal"}, {"location": {"lat": 51.5147610600351, "lon": -0.16095890003302799}, "name": "The Carpenters Arms"}, {"location": {"lat": 51.515166440013274, "lon": -0.16117020000499638}, "name": "The Portman"}, {"location": {"lat": 51.518735725043165, "lon": -0.1649110375125768}, "name": "The Larrik"}, {"location": {"lat": 51.51820896002606, "lon": -0.1698525600471305}, "name": "Royal Exchange"}, {"location": {"lat": 51.516994780026025, "lon": -0.16809723994642334}, "name": "The Heron"}]