[{"location": {"lat": 51.5114165, "lon": -0.0776978}, "name": "The Cheshire Cheese"}, {"location": {"lat": 51.5149285, "lon": -0.0778751}, "name": "The Alice"}, {"location": {"lat": 51.5148281, "lon": -0.0781193}, "name": "The Lion Houndsditch"}, {"location": {"lat": 51.5142543, "lon": -0.0742015}, "name": "Hoop and Grapes"}, {"location": {"lat": 51.513604, "lon": -0.0737842}, "name": "Duke of Somerset"}, {"location": {"lat": 51.5128687, "lon": -0.0701002}, "name": "The Oliver Conquest"}, {"location": {"lat": 51.513501, "lon": -0.0788694}, "name": "The Old Tea Warehouse"}, {"location": {"lat": 51.5158403, "lon": -0.0792759}, "name": "All Bar One"}, {"location": {"lat": 51.5121747, "lon": -0.0757376}, "name": "The Chamberlain"}, {"location": {"lat": 51.5112939, "lon": -0.0772692}, "name": "Bavarian Beerhouse"}, {"location": {"lat": 51.510033, "lon": -0.079363}, "name": "Draft House"}, {"location": {"lat": 51.517868, "lon": -0.07459}, "name": "Duke of Wellington"}, {"location": {"lat": 51.5113698, "lon": -0.0794105}, "name": "The Windsor"}, {"location": {"lat": 51.5152081, "lon": -0.0774089}, "name": "City Bar & Kitchen"}, {"location": {"lat": 51.51892, "lon": -0.0761156}, "name": "The Gun"}, {"location": {"lat": 51.5136334, "lon": -0.0717175}, "name": "White Swan"}, {"location": {"lat": 51.5137054, "lon": -0.0707311}, "name": "Black Horse"}, {"location": {"lat": 51.51709436251644, "lon": -0.07898132501501166}, "name": "The Magpie"}, {"location": {"lat": 51.51781895266847, "lon": -0.07877607357848908}, "name": "The Astronomer"}, {"location": {"lat": 51.511453914301676, "lon": -0.07051227133934604}, "name": "Princess Of Prussia"}, {"location": {"lat": 51.51148882015252, "lon": -0.07262068666794302}, "name": "Goodman's Field"}, {"location": {"lat": 51.51803266002068, "lon": -0.07756118001304274}, "name": "Grapeshots"}, {"location": {"lat": 51.51120082001603, "lon": -0.07887408000688322}, "name": "The Crutched Friar"}, {"location": {"lat": 51.51086041667276, "lon": -0.07994296666471284}, "name": "The Ship"}, {"location": {"lat": 51.51389114004197, "lon": -0.0745994000472075}, "name": "Still & Star"}, {"location": {"lat": 51.51375043643942, "lon": -0.07891260899336855}, "name": "The Trinity Bell"}, {"location": {"lat": 51.51364118336101, "lon": -0.0785659999799664}, "name": "The Craft Beer Co"}, {"location": {"lat": 51.51936457144064, "lon": -0.07430211428444694}, "name": "The Ten Bells"}, {"location": {"lat": 51.516857875053795, "lon": -0.07297676250393689}, "name": "The Culpeper"}, {"location": {"lat": 51.518197430062244, "lon": -0.07935224995330341}, "name": "Woodin's Shades"}, {"location": {"lat": 51.51794764669704, "lon": -0.07782895328904915}, "name": "Kings Stores"}, {"location": {"lat": 51.51251237147796, "lon": -0.07534067145787257}, "name": "The Three Lords"}, {"location": {"lat": 51.51585001004698, "lon": -0.07560416007265866}, "name": "The Bell"}, {"location": {"lat": 51.51233147001804, "lon": -0.07925134001566014}, "name": "East India Arms"}, {"location": {"lat": 51.51894510000596, "lon": -0.07122748330970172}, "name": "Pride of Spitalfields"}, {"location": {"lat": 51.514098157187895, "lon": -0.07055224273569852}, "name": "The Dispensary"}, {"location": {"lat": 51.515817320008395, "lon": -0.07079435997014051}, "name": "The White Hart"}, {"location": {"lat": 51.517230571444415, "lon": -0.07023779999338688}, "name": "The Buxton"}, {"location": {"lat": 51.5183071909266, "lon": -0.078489481791323}, "name": "Williams Ale & Cider House"}, {"location": {"lat": 51.513349266687975, "lon": -0.07647376667888567}, "name": "Three Tuns"}, {"location": {"lat": 51.51082980006399, "lon": -0.07479614297447107}, "name": "The Minories"}, {"location": {"lat": 51.51044546001495, "lon": -0.07013798000550114}, "name": "The Artful Dodger"}, {"location": {"lat": 51.517977530088864, "lon": -0.07944885989296906}, "name": "Dirty Dicks"}]