[{"location": {"lat": 51.6534067, "lon": -0.2007979}, "name": "The King's Head"}, {"location": {"lat": 51.6555251, "lon": -0.2016884}, "name": "The Bucher's Arms"}, {"location": {"lat": 51.653131, "lon": -0.206677}, "name": "The Black Horse"}, {"location": {"lat": 51.6581377, "lon": -0.2013105}, "name": "Ye Olde Monken Holt"}, {"location": {"lat": 51.65630602009424, "lon": -0.2080337199071024}, "name": "Sebright Arms"}]