[{"location": {"lat": 51.656505, "lon": -0.0874147}, "name": "Cricketers Arms"}, {"location": {"lat": 51.6519527, "lon": -0.0814868}, "name": "The Goose at the George"}, {"location": {"lat": 51.6528776, "lon": -0.0865804}, "name": "The Stag"}, {"location": {"lat": 51.655872, "lon": -0.0869342}, "name": "Crown and Horseshoes"}, {"location": {"lat": 51.653092, "lon": -0.0803774}, "name": "The Taps"}, {"location": {"lat": 51.6526134, "lon": -0.082537}, "name": "King's Head"}, {"location": {"lat": 51.653762772756615, "lon": -0.08961772726979188}, "name": "The Old Wheatsheaf"}, {"location": {"lat": 51.65888267152598, "lon": -0.08757762858738025}, "name": "The Moon Under Water"}]